State_Name,District_Name,latitude,longitude
Andhra Pradesh,ANANTAPUR,14.72422,77.4306738
Andhra Pradesh,CHITTOOR,13.2026484,79.0032253
Andhra Pradesh,EAST GODAVARI,16.9956638,81.7154378
Andhra Pradesh,GUNTUR,16.2915189,80.4541588
Andhra Pradesh,KADAPA,14.4752936,78.8216861
Andhra Pradesh,KRISHNA,16.21277,81.0306958
Andhra Pradesh,KURNOOL,15.8309251,78.0425373
Andhra Pradesh,PRAKASAM,15.6642643,79.4733001
Andhra Pradesh,SPSR NELLORE,14.7174388,79.6605057
Andhra Pradesh,SRIKAKULAM,18.2949307,83.8938844
Andhra Pradesh,VISAKHAPATANAM,17.68009,83.20161
Andhra Pradesh,VIZIANAGARAM,18.1141255,83.4114389
Andhra Pradesh,WEST GODAVARI,16.6443028,81.5885247
Arunachal Pradesh,ANJAW,28.1114301,96.8269996
Arunachal Pradesh,CHANGLANG,27.272007,96.065526
Arunachal Pradesh,DIBANG VALLEY,28.8291044,95.9554096
Arunachal Pradesh,EAST KAMENG,27.557781,92.9673843
Arunachal Pradesh,EAST SIANG,28.0742219,95.4178149
Arunachal Pradesh,KURUNG KUMEY,27.9863676,93.1578347
Arunachal Pradesh,LOHIT,28.0350161,96.1713515
Arunachal Pradesh,LOWER DIBANG VALLEY,28.2149563,95.878774
Arunachal Pradesh,LOWER SUBANSIRI,27.5326327,93.7823245
Arunachal Pradesh,PAPUM PARE,27.2863666,93.6187716
Arunachal Pradesh,TAWANG,27.57417,91.92437
Arunachal Pradesh,TIRAP,27.030169,95.4979175
Arunachal Pradesh,UPPER SIANG,28.7312046,95.0377315
Arunachal Pradesh,UPPER SUBANSIRI,28.2596054,94.0938106
Arunachal Pradesh,WEST KAMENG,27.3386269,92.4333662
Arunachal Pradesh,WEST SIANG,28.1970922,94.48407
Assam,BAKSA,26.6275689,91.3388551
Assam,BARPETA,26.345941,91.039708
Assam,BONGAIGAON,26.4800126,90.5580387
Assam,CACHAR,24.75864,92.8816648
Assam,CHIRANG,26.6464231,90.624157
Assam,DARRANG,26.4373481,92.0047145
Assam,DHEMAJI,27.5945155,94.7192098
Assam,DHUBRI,26.132275,90.1249962
Assam,DIBRUGARH,27.4844597,94.9019447
Assam,DIMA HASAO,25.4003625,93.0752292
Assam,GOALPARA,26.0491877,90.6001859
Assam,GOLAGHAT,26.5108262,93.9743686
Assam,HAILAKANDI,24.6846916,92.5645836
Assam,JORHAT,26.7577925,94.2079645
Assam,KAMRUP,26.146886,91.2227397
Assam,KAMRUP METRO,26.1161783,91.7972485
Assam,KARBI ANGLONG,26.0,93.5
Assam,KARIMGANJ,24.5828195,92.3725486
Assam,KOKRAJHAR,26.4912103,90.1215209
Assam,LAKHIMPUR,27.1763356,94.1992932
Assam,MARIGAON,26.290712,92.2922184
Assam,NAGAON,26.3313646,92.7524763
Assam,NALBARI,26.3533631,91.3983662
Assam,SIVASAGAR,26.9834936,94.6394226
Assam,SONITPUR,26.7677707,92.7014089
Assam,TINSUKIA,27.4879722,95.3601855
Assam,UDALGURI,26.7047237,92.0421507
Bihar,ARARIA,26.2651013,87.3699437
Bihar,ARWAL,25.1812831,84.6596648
Bihar,AURANGABAD,24.80332,84.4110198
Bihar,BANKA,24.8328273,86.8161114
Bihar,BEGUSARAI,25.5125411,86.0883392
Bihar,BHAGALPUR,25.2861354,87.1304229
Bihar,BHOJPUR,25.4501182,84.5635193
Bihar,BUXAR,25.5044834,84.1097525
Bihar,DARBHANGA,26.0829899,86.0324951
Bihar,GAYA,24.6793889,85.0115833
Bihar,GOPALGANJ,26.4211166,84.3739133
Bihar,JAMUI,24.7562513,86.3011128
Bihar,JEHANABAD,25.1529578,85.0065043
Bihar,KAIMUR (BHABUA),25.0398678,83.6085775
Bihar,KATIHAR,25.5586421,87.6457196
Bihar,KHAGARIA,25.4930513,86.6982264
Bihar,KISHANGANJ,26.2984144,87.9466715
Bihar,LAKHISARAI,25.1543938,86.1744959
Bihar,MADHEPURA,25.7806118,86.9364753
Bihar,MADHUBANI,26.3503076,86.2296424
Bihar,MUNGER,25.2202864,86.5161484
Bihar,MUZAFFARPUR,26.1482548,85.3316097
Bihar,NALANDA,25.1364914,85.4436546
Bihar,NAWADA,24.8173249,85.5179085
Bihar,PASHCHIM CHAMPARAN,27.0,84.5
Bihar,PATNA,25.6093239,85.1235252
Bihar,PURBI CHAMPARAN,26.6465969,84.9091552
Bihar,PURNIA,25.7758723,87.4087667
Bihar,ROHTAS,24.9394142,84.0197031
Bihar,SAHARSA,25.8330757,86.6143751
Bihar,SAMASTIPUR,25.7747884,85.8672314
Bihar,SARAN,25.9214451,84.7759731
Bihar,SHEIKHPURA,25.1250741,85.8160771
Bihar,SHEOHAR,26.4934234,85.2717561
Bihar,SITAMARHI,26.5942841,85.500428
Bihar,SIWAN,26.131008,84.3910745
Bihar,SUPAUL,26.2768089,86.7959614
Bihar,VAISHALI,25.7491702,85.3972164
Chandigarh,CHANDIGARH,30.7334421,76.7797143
Chhattisgarh,BASTAR,19.1191282,81.8291865
Chhattisgarh,BIJAPUR,18.7935679,80.815939
Chhattisgarh,BILASPUR,22.1638486,82.1365923
Chhattisgarh,DANTEWADA,18.8640648,81.3833947
Chhattisgarh,DHAMTARI,20.5326259,81.7155987
Chhattisgarh,DURG,21.1982964,81.4007922
Chhattisgarh,JANJGIR-CHAMPA,21.986403,82.5536606
Chhattisgarh,JASHPUR,22.770251,83.9708013
Chhattisgarh,KABIRDHAM,22.1150085,81.2446944
Chhattisgarh,KANKER,20.2692747,81.4932111
Chhattisgarh,KORBA,22.5198217,82.6350029
Chhattisgarh,KOREA,23.2382999,82.3906588
Chhattisgarh,MAHASAMUND,21.1922846,82.4890263
Chhattisgarh,NARAYANPUR,19.5842032,81.1136986
Chhattisgarh,RAIGARH,22.2361795,83.3529534
Chhattisgarh,RAIPUR,21.2380912,81.6336993
Chhattisgarh,RAJNANDGAON,21.0684424,80.7970779
Chhattisgarh,SURGUJA,22.9469135,83.1656942
Dadra and Nagar Haveli,DADRA AND NAGAR HAVELI,20.233792,73.0495173
Goa,NORTH GOA,15.6044413,74.0017241
Goa,SOUTH GOA,15.219624,74.1159085
Gujarat,AHMADABAD,23.0215374,72.5800568
Gujarat,AMRELI,21.4176122,71.249609
Gujarat,ANAND,22.5586555,72.9627227
Gujarat,BANAS KANTHA,24.25,72.5
Gujarat,BHARUCH,21.7080427,72.9956936
Gujarat,BHAVNAGAR,21.7718836,72.1416449
Gujarat,DANG,20.7881718,73.7092033
Gujarat,DOHAD,22.9,74.0
Gujarat,GANDHINAGAR,23.2232877,72.6492267
Gujarat,JAMNAGAR,22.4732415,70.0552102
Gujarat,JUNAGADH,21.5220416,70.4582458
Gujarat,KACHCHH,23.583333,70.0
Gujarat,KHEDA,22.8532503,72.9953586
Gujarat,MAHESANA,23.6015557,72.3867981
Gujarat,NARMADA,21.7392624,73.6262458
Gujarat,NAVSARI,20.952407,72.9323831
Gujarat,PANCH MAHALS,23.0,74.0
Gujarat,PATAN,23.773753,71.6798581
Gujarat,PORBANDAR,21.6409,69.611
Gujarat,RAJKOT,22.3053263,70.8028377
Gujarat,SABAR KANTHA,23.5,73.25
Gujarat,SURAT,21.2094892,72.8317058
Gujarat,SURENDRANAGAR,22.8251395,71.6209736
Gujarat,TAPI,21.1916567,73.5560631
Gujarat,VADODARA,22.2973142,73.1942567
Gujarat,VALSAD,20.4321957,73.1409893
Haryana,AMBALA,30.3843674,76.770421
Haryana,BHIWANI,28.7931703,76.1391283
Haryana,FARIDABAD,28.4031478,77.3105561
Haryana,FATEHABAD,29.5359209,75.5752901
Haryana,GURGAON,28.4646148,77.0299194
Haryana,HISAR,29.2396596,75.8174505
Haryana,JHAJJAR,28.5964461,76.6505366
Haryana,JIND,29.3152073,76.314082
Haryana,KAITHAL,29.7996588,76.3989903
Haryana,KARNAL,29.7255766,76.9106924
Haryana,KURUKSHETRA,29.9693747,76.8482787
Haryana,MAHENDRAGARH,28.132697,76.1697448
Haryana,MEWAT,27.9935177,77.0419634
Haryana,PALWAL,28.0599426,77.3223422
Haryana,PANCHKULA,30.6975401,76.8551066
Haryana,PANIPAT,29.3912753,76.9771675
Haryana,REWARI,28.1956468,76.6165179
Haryana,ROHTAK,28.9010899,76.5801935
Haryana,SIRSA,29.6063041,74.9036568
Haryana,SONIPAT,28.9953758,77.0233627
Haryana,YAMUNANAGAR,30.1231349,77.286329
Himachal Pradesh,BILASPUR,31.3380959,76.7611631
Himachal Pradesh,CHAMBA,32.6923316,76.1631552
Himachal Pradesh,HAMIRPUR,31.6539865,76.5403633
Himachal Pradesh,KANGRA,32.0768665,76.2985872
Himachal Pradesh,KINNAUR,31.593013,78.3281417
Himachal Pradesh,KULLU,31.9578974,77.1089232
Himachal Pradesh,LAHUL AND SPITI,32.509934,77.0243657
Himachal Pradesh,MANDI,31.6516617,77.0092542
Himachal Pradesh,SHIMLA,31.1041526,77.1709729
Himachal Pradesh,SIRMAUR,30.6991321,77.4465304
Himachal Pradesh,SOLAN,30.9077569,77.1023645
Himachal Pradesh,UNA,31.5834642,76.2351452
Jammu and Kashmir ,ANANTNAG,33.74611,75.1854475
Jammu and Kashmir ,BADGAM,34.0385248,74.7360163
Jammu and Kashmir ,BANDIPORA,34.4232433,74.635965
Jammu and Kashmir ,BARAMULLA,34.2086903,74.343498
Jammu and Kashmir ,DODA,33.13261,75.5890079
Jammu and Kashmir ,GANDERBAL,34.2889322,75.0407983
Jammu and Kashmir ,JAMMU,32.7185614,74.8580917
Jammu and Kashmir ,KARGIL,32.7045476,74.871206
Jammu and Kashmir ,KATHUA,32.3765524,75.5243044
Jammu and Kashmir ,KISHTWAR,33.3107908,75.7694213
Jammu and Kashmir ,KULGAM,33.6446899,75.0188432
Jammu and Kashmir ,KUPWARA,34.5140696,74.191367
Jammu and Kashmir ,LEH LADAKH,34.16504,77.58402
Jammu and Kashmir ,POONCH,33.7670004,74.0957143
Jammu and Kashmir ,PULWAMA,33.9490472,75.0418335
Jammu and Kashmir ,RAJAURI,33.375,74.3
Jammu and Kashmir ,RAMBAN,33.3332891,75.1984763
Jammu and Kashmir ,REASI,33.08,74.83
Jammu and Kashmir ,SAMBA,32.57,75.12
Jammu and Kashmir ,SHOPIAN,33.72,74.83
Jammu and Kashmir ,SRINAGAR,34.09,74.79
Jammu and Kashmir ,UDHAMPUR,32.93,75.13
Jharkhand,BOKARO,23.67,86.15
Jharkhand,CHATRA,24.1062316,84.8623379
Jharkhand,DEOGHAR,24.4898318,86.6990182
Jharkhand,DHANBAD,23.7952809,86.4309638
Jharkhand,DUMKA,24.2677937,87.2485495
Jharkhand,EAST SINGHBUM,22.78,86.18
Jharkhand,GARHWA,24.053577,83.6526818
Jharkhand,GIRIDIH,24.18,86.3
Jharkhand,GODDA,24.8645886,87.2984838
Jharkhand,GUMLA,23.1603759,84.4599565
Jharkhand,HAZARIBAGH,24.0866962,85.4912231
Jharkhand,JAMTARA,23.9801639,86.9243637
Jharkhand,KHUNTI,22.9281801,85.2814475
Jharkhand,KODERMA,24.4931239,85.5560811
Jharkhand,LATEHAR,23.6880057,84.4969551
Jharkhand,LOHARDAGA,23.4770044,84.6986684
Jharkhand,PAKUR,24.5325908,87.593232
Jharkhand,PALAMU,24.2212983,84.1725565
Jharkhand,RAMGARH,23.693479,85.5215989
Jharkhand,RANCHI,23.3700501,85.3250387
Jharkhand,SAHEBGANJ,25.0320437,87.691764
Jharkhand,SARAIKELA KHARSAWAN,22.7464225,85.9168929
Jharkhand,SIMDEGA,22.5904573,84.5464805
Jharkhand,WEST SINGHBHUM,22.4282857,85.5317483
Karnataka,BAGALKOT,16.1793224,75.6999315
Karnataka,BANGALORE RURAL,13.0010872,77.3361225
Karnataka,BELGAUM,15.8572666,74.5069343
Karnataka,BELLARY,15.1430224,76.9173277
Karnataka,BENGALURU URBAN,12.9461554,77.5503844
Karnataka,BIDAR,18.0207296,77.2487204
Karnataka,BIJAPUR,16.8269911,75.7175387
Karnataka,CHAMARAJANAGAR,11.95442,77.1069086
Karnataka,CHIKBALLAPUR,13.4274405,77.7321433
Karnataka,CHIKMAGALUR,13.318014,75.7738743
Karnataka,CHITRADURGA,14.3049174,76.5297234
Karnataka,DAKSHIN KANNAD,12.87,74.88
Karnataka,DAVANGERE,14.4661266,75.9206361
Karnataka,DHARWAD,15.3707296,75.1332867
Karnataka,GADAG,15.416692,75.6815801
Karnataka,GULBARGA,17.3310003,76.8334228
Karnataka,HASSAN,13.0301852,76.1744968
Karnataka,HAVERI,14.7180267,75.3656423
Karnataka,KODAGU,12.3827332,75.6640715
Karnataka,KOLAR,13.1805066,78.2669329
Karnataka,KOPPAL,15.5748238,76.3118494
Karnataka,MANDYA,12.6368939,76.7275477
Karnataka,MYSORE,12.3051828,76.6553609
Karnataka,RAICHUR,16.0547194,76.9003647
Karnataka,RAMANAGARA,12.720006,77.3184199
Karnataka,SHIMOGA,14.0556502,75.2380553
Karnataka,TUMKUR,13.3400771,77.1006208
Karnataka,UDUPI,13.5269784,74.8731879
Karnataka,UTTAR KANNAD,14.8,74.13
Karnataka,YADGIR,16.5744123,76.9254434
Kerala,ALAPPUZHA,9.5006651,76.4124143
Kerala,ERNAKULAM,9.9837257,76.2740001
Kerala,IDUKKI,9.8154785,76.9991599
Kerala,KANNUR,11.8763836,75.3737973
Kerala,KASARAGOD,12.4221964,75.1904446
Kerala,KOLLAM,8.8870815,76.5907017
Kerala,KOTTAYAM,9.6287383,76.6455326
Kerala,KOZHIKODE,11.2450558,75.7754716
Kerala,MALAPPURAM,11.1068448,76.1099551
Kerala,PALAKKAD,10.7873691,76.4742172
Kerala,PATHANAMTHITTA,9.2780841,76.9737443
Kerala,THIRUVANANTHAPURAM,8.4882267,76.947551
Kerala,THRISSUR,10.5270099,76.214621
Kerala,WAYANAD,11.7151291,76.1271185
Madhya Pradesh,ALIRAJPUR,22.2859524,74.3545628
Madhya Pradesh,ANUPPUR,23.0346179,81.7510255
Madhya Pradesh,ASHOKNAGAR,24.6186095,77.8786983
Madhya Pradesh,BALAGHAT,21.8611589,80.3237105
Madhya Pradesh,BARWANI,21.7514248,74.8915957
Madhya Pradesh,BETUL,21.8797472,77.8753651
Madhya Pradesh,BHIND,26.3518828,78.6863189
Madhya Pradesh,BHOPAL,23.2584857,77.401989
Madhya Pradesh,BURHANPUR,21.3348669,76.3708803
Madhya Pradesh,CHHATARPUR,24.7606089,79.6781776
Madhya Pradesh,CHHINDWARA,22.2071897,78.798833
Madhya Pradesh,DAMOH,23.7981005,79.5419356
Madhya Pradesh,DATIA,25.9182946,78.6644962
Madhya Pradesh,DEWAS,22.8057498,76.2940408
Madhya Pradesh,DHAR,22.5786572,75.2258637
Madhya Pradesh,DINDORI,22.9070871,80.8846924
Madhya Pradesh,GUNA,24.5001772,77.2600959
Madhya Pradesh,GWALIOR,26.2037247,78.1573628
Madhya Pradesh,HARDA,22.2427972,77.1179173
Madhya Pradesh,HOSHANGABAD,22.7545538,77.7198249
Madhya Pradesh,INDORE,22.7203616,75.8681996
Madhya Pradesh,JABALPUR,23.1701522,79.9324505
Madhya Pradesh,JHABUA,22.8869652,74.7243249
Madhya Pradesh,KATNI,23.7176393,80.2610181
Madhya Pradesh,KHANDWA,21.8203752,76.3555424
Madhya Pradesh,KHARGONE,21.9544729,75.7521248
Madhya Pradesh,MANDLA,22.6871074,80.5816341
Madhya Pradesh,MANDSAUR,24.2628148,75.385692
Madhya Pradesh,MORENA,26.3849794,77.8612721
Madhya Pradesh,NARSINGHPUR,22.934556,79.0867849
Madhya Pradesh,NEEMUCH,24.6305517,75.1829
Madhya Pradesh,PANNA,24.4498931,80.1462723
Madhya Pradesh,RAISEN,23.2675909,78.1727134
Madhya Pradesh,RAJGARH,23.8716706,76.7744703
Madhya Pradesh,RATLAM,23.50222,74.9551534
